{
"type": "FeatureCollection",
"name": "arizona_cities",
"crs": { "type": "name", "properties": { "name": "urn:ogc:def:crs:OGC:1.3:CRS84" } },
"features": [
{ "type": "Feature", "properties": { "name": "Phoenix", "population": 1608139, "county": "Maricopa" }, "geometry": { "type": "Point", "coordinates": [ -112.074, 33.4484 ] } },
{ "type": "Feature", "properties": { "name": "Tucson", "population": 548073, "county": "Pima" }, "geometry": { "type": "Point", "coordinates": [ -110.9265, 32.2217 ] } },
{ "type": "Feature", "properties": { "name": "Mesa", "population": 504258, "county": "Maricopa" }, "geometry": { "type": "Point", "coordinates": [ -111.8315, 33.4152 ] } },
{ "type": "Feature", "properties": { "name": "Chandler", "population": 275987, "county": "Maricopa" }, "geometry": { "type": "Point", "coordinates": [ -111.8413, 33.3062 ] } },
{ "type": "Feature", "properties": { "name": "Scottsdale", "population": 241361, "county": "Maricopa" }, "geometry": { "type": "Point", "coordinates": [ -111.9026, 33.4942 ] } }
]
}
